City,Country,Lat,Lng,Date,Max Temp,Humidity,Wind Speed,Cloudiness
saldanha,PT,41.42,-6.55,1541267526,48.53,87,3,0
maniitsoq,GL,65.42,-52.9,1541267874,13.66,100,8.03,20
porto novo,BR,-23.68,-45.44,1541268000,91.4,41,10.29,40
fortuna,ES,38.18,-1.13,1541266200,62.6,72,3.36,0
udachnyy,RU,66.42,112.4,1541267875,7,67,5.01,48
belushya guba,,,,,,,,
carnarvon,ZA,-30.97,22.13,1541267292,71.39,10,7.14,76
mys shmidta,,,,,,,,
barentsburg,,,,,,,,
ust-kamchatsk,,,,,,,,
grimshaw,CA,56.19,-117.61,1541264400,23,79,6.93,90
ushuaia,AR,-54.81,-68.31,1541264400,60.8,36,12.75,75
busselton,AU,-33.64,115.35,1541267493,57.44,100,12.77,0
hinatuan,PH,8.37,126.34,1541267876,79,100,5.84,56
lata,IN,30.78,78.62,1541267486,40.66,100,1.25,92
tautira,PF,-17.73,-149.15,1541266200,78.8,78,11.41,40
luan,CH,46.36,6.98,1541265600,51.8,76,5.82,0
bengkulu,,,,,,,,
dali,CN,25.6,100.24,1541267876,39.53,100,1.81,0
vaini,IN,15.34,74.49,1541267486,70.94,95,2.77,48
hilotongan,PH,11.14,123.64,1541267877,82.78,100,15.3,88
punta arenas,CL,-53.16,-70.91,1541264400,57.2,62,9.17,0
barrow,AR,-38.31,-60.23,1541267493,71.21,69,12.17,8
saint-philippe,CA,45.36,-73.48,1541266500,41,93,16.11,90
victoria,BN,5.28,115.24,1541266200,80.6,94,4.23,75
butaritari,KI,3.07,172.79,1541267496,83.86,100,7.81,0
gamba,CN,28.28,88.52,1541267534,1.96,65,3.6,0
saint-pierre,FR,48.95,4.24,1541266200,44.6,93,6.93,20
nizhneyansk,,,,,,,,
talnakh,RU,69.49,88.39,1541267512,-2.59,72,3.56,64
cabedelo,BR,-6.97,-34.84,1541264400,86,62,17.22,40
albany,US,42.65,-73.75,1541266260,48.92,65,18.34,75
hofn,IS,64.25,-15.21,1541267565,38.68,100,26.98,92
poum,MK,41.28,20.71,1541267567,46.91,81,1.81,24
aripuana,BR,-9.17,-60.63,1541267878,89.08,65,2.55,44
leningradskiy,RU,69.38,178.42,1541267520,25.45,100,18.03,76
kaitangata,NZ,-46.28,169.85,1541267525,47.05,67,26.08,0
shache,CN,38.42,77.24,1541267535,32.11,94,1.81,12
grand river south east,,,,,,,,
klaksvik,FO,62.23,-6.59,1541265600,48.2,93,17.22,92
khatanga,RU,71.98,102.47,1541267507,5.11,84,9.37,76
kapaa,US,22.08,-159.32,1541264160,77,79,12.75,40
atuona,PF,-9.8,-139.03,1541267490,80.3,100,12.17,80
iringa,,,,,,,,
opuwo,NA,-18.06,13.84,1541267879,84.58,20,9.75,48
saint-augustin,FR,44.83,-0.61,1541266200,48.2,81,2.24,0
beringovskiy,RU,63.05,179.32,1541267552,29.9,100,9.53,88
mataura,NZ,-46.19,168.86,1541267449,45.25,81,18.7,24
taolanaro,,,,,,,,
ngunguru,NZ,-35.62,174.5,1541267573,62.98,92,25.26,88
merauke,ID,-8.49,140.4,1541267880,80.84,86,12.95,20
hermanus,ZA,-34.42,19.24,1541267488,67.79,40,2.48,88
avarua,CK,-21.21,-159.78,1541264400,69.8,94,12.75,75
hami,CN,42.84,93.51,1541267560,23.33,65,6.13,0
alihe,CN,50.57,123.73,1541267880,10.78,56,4.27,0
mountain home,US,43.13,-115.69,1541264280,47.48,67,10.29,1
khanu woralaksaburi,TH,16.06,99.86,1541267880,68.83,86,4.27,0
erdenet,MN,49.03,104.04,1541267881,1.96,60,4.9,0
mihaileni,RO,47.97,26.15,1541266200,55.4,93,8.05,0
amderma,,,,,,,,
yellowknife,CA,62.45,-114.38,1541266920,14,92,11.41,90
ekhabi,RU,53.51,142.97,1541267708,30.4,83,17.31,80
hobart,AU,-42.88,147.33,1541266200,51.8,57,19.46,20
camacha,PT,33.08,-16.33,1541266200,68,64,10.29,40
east london,ZA,-33.02,27.91,1541264400,66.2,72,14.99,0
jalu,LY,29.03,21.55,1541267882,65.95,50,5.61,0
biak,ID,-0.91,122.88,1541267882,77.69,96,1.77,0
provideniya,RU,64.42,-173.23,1541267508,34.9,100,9.15,36
kavieng,PG,-2.57,150.8,1541267506,80.57,100,6.85,68
rungata,,,,,,,,
ribeira grande,PT,38.52,-28.7,1541266200,68,68,20.8,20
jamestown,AU,-33.21,138.6,1541267384,56.5,75,7.4,100
arraial do cabo,BR,-22.97,-42.02,1541264400,86,66,17.22,0
lebu,ET,8.96,38.73,1541264400,62.6,55,9.17,20
inhambane,MZ,-23.87,35.38,1541264400,69.8,56,5.82,20
mar del plata,AR,-46.43,-67.52,1541267476,63.83,43,18.43,92
new norfolk,AU,-42.78,147.06,1541266200,51.8,57,19.46,20
jieshi,CN,22.82,115.83,1541267883,70.67,100,8.86,80
lagos,NG,6.46,3.39,1541264400,80.6,88,4.7,75
avera,US,33.19,-82.53,1541266500,64.04,39,5.82,1
narsaq,GL,60.91,-46.05,1541263800,30.2,63,2.24,75
christchurch,NZ,-43.53,172.64,1541266200,50,57,8.05,0
bredasdorp,ZA,-34.53,20.04,1541264400,69.8,64,4.7,76
blackwater,GB,51.33,-0.78,1541265600,51.8,76,8.05,0
sungairaya,ID,0.7,108.9,1541267884,73.73,100,2.77,20
bluff,AU,-23.58,149.07,1541267487,64.55,93,5.91,0
marystown,CA,47.17,-55.16,1541267884,48.53,95,16.46,92
oussouye,SN,12.49,-16.54,1541264400,95,41,6.93,0
haines junction,CA,60.75,-137.51,1541267577,1.64,96,2.48,88
port alfred,ZA,-33.59,26.89,1541267531,72.88,66,20.56,12
illoqqortoormiut,,,,,,,,
gat,SN,14.69,-16.54,1541264400,100.4,25,4.7,0
libreville,GA,0.39,9.45,1541266200,82.4,78,10.29,40
rikitea,PF,-23.12,-134.97,1541267485,74.05,98,18.66,76
bethel,US,60.79,-161.76,1541263980,24.98,80,13.87,90
lorengau,PG,-2.02,147.27,1541267491,82.73,100,8.14,24
alofi,NU,-19.06,-169.92,1541264400,69.8,60,10.29,0
moree,AU,-29.46,149.84,1541267885,62.39,91,3,12
komsomolskiy,RU,67.55,63.78,1541267567,25,95,10.31,80
la mata,CO,9.15,-73.75,1541267886,83.63,80,2.1,80
cayenne,GF,4.94,-52.33,1541264400,87.8,55,9.17,12
lompoc,US,34.64,-120.46,1541266500,80.06,35,7.92,1
nikolskoye,RU,59.7,30.79,1541264400,48.2,81,11.18,90
geraldton,CA,49.72,-86.95,1541265960,33.8,86,4.7,75
nuuk,GL,64.17,-51.74,1541263800,23,67,8.05,40
owando,CG,-0.49,15.91,1541267886,75.71,94,1.59,12
vila,IT,45.18,8.4,1541265600,57.2,100,5.82,75
mahon,IE,51.89,-8.4,1541266200,53.6,93,16.11,75
cape town,ZA,-33.93,18.42,1541264400,68,49,6.93,0
lagoa,PT,37.14,-8.45,1541266200,62.6,88,6.93,0
thessalon,CA,46.26,-83.55,1541266500,35.96,59,6.93,90
dikson,RU,73.51,80.55,1541267531,21.89,89,13.44,0
vanimo,PG,-2.67,141.3,1541267888,79,100,12.28,76
kerki,,,,,,,,
tsihombe,,,,,,,,
ribeira brava,PT,32.65,-17.07,1541266200,68,68,12.75,75
qiongshan,CN,20.01,110.35,1541264400,68,100,2.24,40
parakou,BJ,9.34,2.63,1541267888,85.3,42,2.59,20
mount gambier,AU,-37.83,140.78,1541267487,54.92,74,5.12,68
mantua,IT,45.16,10.79,1541265600,60.8,93,6.93,20
pangnirtung,CA,66.15,-65.72,1541266620,17.6,78,3.36,90
turukhansk,RU,65.8,87.96,1541267722,4.03,79,7.92,64
chiman,PK,32.55,73.81,1541264400,62.6,67,9.17,40
paamiut,GL,61.99,-49.67,1541267889,32.51,100,10.6,64
novikovo,UA,45.05,34.56,1541267889,39.8,100,3.56,0
cabo san lucas,MX,22.89,-109.91,1541263500,78.8,57,5.82,5
wahiawa,US,21.5,-158.02,1541264220,78.98,94,13.18,1
saleaula,,,,,,,,
bambous virieux,MU,-20.34,57.76,1541264400,75.2,78,1.12,20
ostersund,SE,63.18,14.64,1541265600,35.6,93,11.41,0
upernavik,GL,72.79,-56.15,1541267515,22.43,100,11.32,44
tessalit,ML,20.2,1.01,1541267509,81.92,23,6.35,0
picota,PE,-6.92,-76.33,1541264400,89.6,290,6.93,40
hasaki,JP,35.73,140.83,1541264400,53.6,81,2.24,0
ciudad guayana,VE,8.32,-62.69,1541267890,81.92,87,4.9,76
innisfail,CA,52.02,-113.95,1541264400,32,78,9.17,75
ahipara,NZ,-35.17,173.16,1541267527,60.77,97,22.46,92
luderitz,NA,-26.65,15.16,1541264400,59,82,9.17,32
pierre,US,44.37,-100.35,1541264940,39.02,95,13.87,90
bengkalis,,,,,,,,
kamenka,RU,53.19,44.05,1541267539,35.39,86,12.88,92
byron bay,AU,-28.65,153.62,1541266200,69.8,83,13.87,0
jaguey grande,CU,22.53,-81.13,1541263800,84.2,70,3.36,75
cefalu,IT,38.04,14.02,1541267892,60.68,97,12.39,80
nome,US,30.04,-94.42,1541265300,75.74,47,16.11,40
thompson,CA,55.74,-97.86,1541265960,12.2,85,3.56,90
bochov,CZ,50.15,13.05,1541266200,48.2,87,9.17,90
puerto ayora,EC,-0.74,-90.35,1541264400,80.6,61,12.75,20
rio gallegos,AR,-51.62,-69.22,1541264400,60.8,48,25.28,0
zhangjiakou,CN,40.77,114.88,1541267892,36.74,96,3.38,92
zlobin,HR,45.29,14.65,1541266200,68,56,9.17,0
bilma,NE,18.69,12.92,1541267893,72.43,18,3.04,0
det udom,TH,14.9,105.08,1541264400,73.4,83,4.7,0
sitio novo do tocantins,,,,,,,,
goderich,CA,43.74,-81.71,1541267563,41.24,98,16.98,88
svetlyy,,,,,,,,
kovur,IN,14.5,79.99,1541267736,75.53,86,5.35,0
kahului,US,20.89,-156.47,1541264160,77,73,16.11,20
tuktoyaktuk,CA,69.44,-133.03,1541264400,3.2,77,5.82,40
lakes entrance,AU,-37.88,147.99,1541267640,54.61,96,2.77,0
fairbanks,US,64.84,-147.72,1541264280,1.94,81,5.61,1
kodiak,US,39.95,-94.76,1541263980,53.06,63,13.87,75
oyonnax,FR,46.26,5.66,1541266200,50,81,2.24,0
luanda,AO,-8.83,13.24,1541264400,80.6,74,9.17,40
rio grande,BR,-32.03,-52.1,1541264400,75.2,57,11.41,40
cherskiy,RU,68.75,161.3,1541267499,-10.06,70,1.59,24
airai,TL,-8.93,125.41,1541267507,65.23,86,1.77,0
sepuka,TZ,-4.75,34.53,1541267895,75.35,37,11.05,56
port elizabeth,US,39.31,-74.98,1541264160,57.92,49,21.92,75
buraydah,SA,26.33,43.97,1541264400,62.6,100,8.05,75
banff,CA,51.18,-115.57,1541267895,35.39,52,1.77,8
castro,CL,-42.48,-73.76,1541267452,51.5,97,18.7,92
esperance,TT,10.24,-61.45,1541264400,87.8,62,12.75,40
tasiilaq,GL,65.61,-37.64,1541263800,23,45,2.24,20
vila franca do campo,PT,37.72,-25.43,1541266200,66.2,100,12.75,75
palabuhanratu,,,,,,,,
el copey,CO,10.15,-73.96,1541267896,80.08,87,2.55,48
charters towers,AU,-20.07,146.27,1541267896,67.21,95,4.38,24
xining,CN,36.62,101.77,1541267896,23.69,88,3,92
kruisfontein,ZA,-34,24.73,1541267490,70.18,63,12.77,24
guasdualito,VE,7.24,-70.73,1541264400,91.4,59,4.7,40
okato,NZ,-39.19,173.88,1541267499,56.36,96,25.86,44
rochegda,RU,62.67,43.41,1541267897,40.97,95,6.85,92
longyearbyen,NO,78.22,15.63,1541265600,24.8,68,25.28,20
vardo,US,39.62,-77.74,1541265300,55.4,54,14.99,75
kangaatsiaq,GL,68.31,-53.46,1541267536,26.98,100,23.13,56
inuvik,CA,68.36,-133.71,1541264400,1.4,77,7.14,20
husavik,CA,50.56,-96.99,1541267897,33.05,100,4.61,20
sur,OM,22.57,59.53,1541267501,76.97,100,14.12,0
severo-kurilsk,RU,50.68,156.12,1541267496,41.6,100,8.25,88
chuy,UY,-33.69,-53.46,1541267516,67.16,90,12.06,0
venice,US,27.1,-82.45,1541266500,75.2,44,16.11,1
yining,CN,29.04,114.56,1541267898,46.1,89,2.33,0
lavrentiya,RU,65.58,-170.99,1541267496,36.25,100,20.11,20
solnechnyy,RU,50.72,136.64,1541267898,26.39,77,6.91,48
taoudenni,ML,22.68,-3.98,1541267558,75.08,23,8.14,0
south sioux city,US,42.47,-96.41,1541266500,42.98,100,8.37,90
zelenoborsk,RU,61.47,64.05,1541267899,20.54,86,3.38,56
marcona,,,,,,,,
rafaela,AR,-31.25,-61.49,1541267900,83.86,58,12.88,0
talcahuano,CL,-36.72,-73.12,1541264400,60.8,67,9.17,75
kulhudhuffushi,MV,6.62,73.07,1541267900,83.63,100,5.39,92
ulladulla,AU,-35.36,150.48,1541266200,60.8,82,4.7,90
kalavrita,,,,,,,,
coquimbo,CL,-29.95,-71.34,1541264400,64.4,68,14.99,40
antsohihy,MG,-14.88,47.99,1541267898,75.4,90,4.83,48
umzimvubu,,,,,,,,
novosokolniki,RU,56.35,30.15,1541267902,45.92,92,10.83,12
vestmanna,FO,62.16,-7.17,1541265600,48.2,93,17.22,56
portland,US,45.52,-122.67,1541266140,55.04,89,3.11,90
guerrero negro,MX,27.97,-114.04,1541267574,76.3,49,2.82,0
brawley,US,32.98,-115.53,1541264160,75.92,33,3.36,1
muzhi,RU,65.4,64.7,1541267508,13.88,69,4.79,36
touros,BR,-5.2,-35.46,1541267512,86.11,65,17.13,8
petropavlovsk-kamchatskiy,RU,53.05,158.65,1541264400,32,100,2.24,40
sept-iles,CA,50.2,-66.38,1541264400,35.6,93,9.17,90
berlevag,NO,70.86,29.09,1541267904,32.11,100,3.56,88
hithadhoo,MV,-0.6,73.08,1541267505,81.88,100,4.79,76
bairiki,,,,,,,,
enterprise,US,31.32,-85.86,1541265960,66.92,52,6.06,1
palmer,AU,-34.85,139.16,1541266200,55.4,76,9.17,0
humaita,AR,-24.93,-65.37,1541264400,87.8,39,4.7,40
quatre cocos,MU,-20.21,57.76,1541264400,75.2,78,1.12,20
comodoro rivadavia,AR,-45.87,-67.48,1541264400,69.8,26,13.87,75
ixtapa,MX,20.71,-105.21,1541263380,80.6,83,2.71,75
signagi,,,,,,,,
bassar,TG,9.26,0.78,1541264400,84.2,66,2.24,20
orda,RU,57.2,56.91,1541267905,33.91,96,11.61,88
datong,CN,40.09,113.3,1541267777,36.56,93,5.61,92
olafsvik,,,,,,,,
thinadhoo,MV,0.53,72.93,1541267498,83.36,100,3.71,80
ponta do sol,BR,-20.63,-46,1541267498,81.2,73,8.59,44
altamont,CA,49.4,-98.5,1541265300,35.6,100,8.05,92
port hedland,AU,-20.31,118.58,1541266200,78.8,65,10.29,0
edendale,ZA,-29.65,30.31,1541267906,60.32,68,4.23,0
hilo,US,19.71,-155.08,1541264160,71.06,86,8.08,1
aklavik,CA,68.22,-135.01,1541264400,1.4,77,2.24,5
aykhal,RU,65.95,111.51,1541267575,6.05,69,6.85,64
bulawayo,ZW,-20.16,28.59,1541267907,63.83,68,14.29,44
qaanaaq,GL,77.48,-69.36,1541267486,1.64,100,9.26,0
yulara,AU,-25.24,130.99,1541264400,77,38,12.75,36
zatoka,PL,50.04,20.52,1541266200,50,93,5.82,90
saint-leu,RE,-21.15,55.28,1541266200,75.2,69,6.93,56
nemuro,JP,43.32,145.57,1541267908,53.98,99,11.16,0
valparaiso,US,41.47,-87.06,1541266500,50,61,4.27,90
bathsheba,BB,13.22,-59.52,1541264400,86,70,18.34,40
belmonte,PT,40.36,-7.35,1541267908,52.4,92,2.59,0
honningsvag,NO,70.98,25.97,1541267909,39.44,100,11.61,92
yerbogachen,RU,61.28,108.01,1541267412,18.61,68,9.15,68
iqaluit,CA,63.75,-68.52,1541264400,19.4,79,5.82,90
san patricio,PY,-26.98,-56.83,1541267555,70.13,100,3.89,100
armacao dos buzios,,,,,,,,
reichenau,DE,51.25,13.96,1541265600,48.2,87,6.93,75
tabuleiro do norte,BR,-5.24,-38.13,1541267909,98.39,31,9.42,0
santiago de chuco,PE,-8.15,-78.17,1541267909,53.93,85,1.99,100
tukrah,,,,,,,,
luganville,VU,-15.51,167.18,1541267910,78.28,100,19.15,64
clyde river,CA,70.47,-68.59,1541264400,8.6,78,8.05,75
halalo,,,,,,,,
adrar,DZ,27.87,-0.29,1541264400,75.2,29,14.99,0
tuatapere,NZ,-46.13,167.69,1541267552,46.51,100,27.16,80
georgetown,GY,6.8,-58.16,1541264400,82.4,83,6.93,75
pittsburg,US,38.02,-121.89,1541266800,75.2,17,16.11,1
ilulissat,GL,69.22,-51.1,1541263800,15.8,78,20.8,75
sambava,MG,-14.27,50.17,1541267520,76.7,100,9.31,92
tual,ID,-5.67,132.75,1541267911,80.08,100,12.62,68
acapulco,MX,16.86,-99.88,1541263620,86,74,5.82,75
nanakuli,US,21.39,-158.15,1541264220,78.98,94,19.22,1
iracoubo,GF,5.48,-53.21,1541267911,84.62,75,4.72,36
maceio,BR,-9.67,-35.74,1541264400,86,62,17.22,40
tumannyy,,,,,,,,
huarmey,PE,-10.07,-78.15,1541267911,78.91,45,4.12,12
karratha,AU,-20.74,116.85,1541267912,77.42,37,10.16,0
torbay,CA,47.66,-52.73,1541265660,44.6,100,13.87,90
akyab,,,,,,,,
psebay,RU,44.12,40.81,1541267912,38,78,2.33,0
skelleftea,SE,64.75,20.95,1541265600,33.8,86,6.93,8
champerico,MX,16.38,-93.6,1541264220,80.6,65,4.7,40
constitucion,MX,23.99,-104.67,1541263620,64.4,34,8.05,5
ostrovnoy,RU,68.05,39.51,1541267555,32.42,100,5.35,92
aswan,EG,24.09,32.9,1541264400,82.4,24,3.36,0
bonthe,SL,7.53,-12.5,1541267913,80.71,88,1.32,32
vaitupu,,,,,,,,
lamu,ID,0.57,122.3,1541267913,74.63,100,2.77,68
ndende,,,,,,,,
krasnoselkup,,,,,,,,
naenwa,,,,,,,,
sao filipe,CV,14.9,-24.5,1541267579,80.57,88,15.79,20
kerteh,,,,,,,,
flinders,AU,-34.58,150.85,1541266200,60.8,82,4.7,90
kibala,TD,9.11,18.35,1541264400,87.8,55,7.52,20
hobyo,SO,5.35,48.53,1541267914,77.83,86,8.63,0
port-de-paix,,,,,,,,
mayumba,GA,-3.44,10.65,1541267914,77.78,96,7.4,92
puerto vallarta,MX,20.61,-105.23,1541263380,80.6,83,2.21,75
arcata,US,40.87,-124.08,1541266800,53.6,100,3.78,90
chokurdakh,RU,70.62,147.9,1541267444,-11.5,57,3.89,44
rayong,TH,12.68,101.28,1541266200,78.8,74,4.7,8
zyryanka,RU,65.73,150.89,1541267915,1.28,61,8.41,88
puerto baquerizo moreno,EC,-0.9,-89.6,1541264400,77,69,17.22,20
jiddah,,,,,,,,
san andres,PH,13.32,122.68,1541267916,82.01,100,12.39,56
mendahara,,,,,,,,
uruzgan,AF,32.93,66.63,1541267916,13.66,47,1.99,0
roald,NO,62.58,6.12,1541265600,51.8,66,12.75,20
pitea,SE,65.32,21.48,1541265600,35.6,80,4.7,0
korla,,,,,,,,
ambon,FR,47.55,-2.56,1541266200,46.4,65,5.82,0
yuli,NG,10.52,9.86,1541267917,79.76,39,4.12,0
la rioja,AR,-29.41,-66.86,1541267917,70.94,85,7.63,100
san carlos de bariloche,AR,-41.13,-71.31,1541264400,53.6,66,25.28,75
egvekinot,RU,66.32,-179.17,1541267493,26.71,91,6.24,88
longonjo,AO,-12.91,15.25,1541267917,70.31,58,1.7,80
soltsy,RU,58.12,30.32,1541267918,46.33,87,8.93,88
svetlogorsk,RU,53.14,59.15,1541264400,32,78,4.47,75
hyeres,FR,43.12,6.14,1541266200,64.4,77,1.12,0
temirtau,KZ,50.05,72.96,1541264400,28.4,100,6.71,90
xichang,CN,27.88,102.25,1541267918,36.16,86,1.7,8
srednekolymsk,RU,67.46,153.71,1541267513,-2.5,72,3.71,80
jinchang,CN,38.52,102.19,1541267574,24.91,91,2.82,80
katsuura,JP,33.93,134.5,1541267490,50.33,99,3.56,12
katobu,ID,-4.94,122.53,1541267919,80.71,100,3.22,32
alyangula,AU,-13.85,136.42,1541267919,81.83,100,8.59,0
iquitos,PE,-3.75,-73.25,1541264400,42.8,319,9.17,75
hede,SE,60.45,15.49,1541265600,39.2,93,8.05,24
fairlie,US,33.31,-95.96,1541265300,71.6,46,18.34,1
raudeberg,NO,61.99,5.14,1541265600,48.2,81,25.28,75
artyom,RU,43.36,132.19,1541264400,35.6,100,2.24,90
port blair,IN,11.67,92.75,1541267582,83.86,100,10.76,0
mangrol,IN,25.33,76.51,1541267920,74.36,56,3,44
soyo,AO,-6.13,12.37,1541267362,80.03,71,6.24,20
churapcha,RU,62,132.43,1541267920,11.68,62,11.32,64
astoria,US,46.19,-123.83,1541264100,55.94,93,6.93,90
impfondo,CD,1.62,18.06,1541267921,75.44,93,2.37,12
daud khel,PK,32.58,71.54,1541267921,48.44,91,3,0
balimo,,,,,,,,
saskylakh,RU,71.97,114.09,1541267489,0.88,71,4.12,76
shaunavon,CA,49.65,-108.41,1541267921,29.81,100,5.12,44
west wendover,US,40.74,-114.07,1541264160,48.02,40,8.05,1
tiksi,RU,71.64,128.87,1541267512,-7.45,61,9.75,44
campobello di mazara,IT,37.64,12.74,1541265600,62.6,87,4.7,75
sao joao da barra,BR,-21.64,-41.05,1541264400,86,58,16.11,20
san rafael,AR,-34.61,-68.33,1541267923,75.85,28,9.31,0
dingle,PH,11,122.67,1541267545,77.15,92,10.16,36
uyuni,BO,-20.46,-66.82,1541267923,69.77,22,4.27,24
storsteinnes,NO,69.24,19.23,1541265600,39.2,92,11.41,75
codrington,AU,-28.95,153.24,1541267512,64.73,87,3.04,0
jardim,BR,-21.48,-56.15,1541267923,91.19,67,8.25,36
salaga,GH,8.55,-0.52,1541267924,89.35,50,5.5,12
synya,RU,65.37,58.04,1541267924,27.02,88,6.13,92
mingguang,CN,32.78,118.01,1541267924,58.21,97,7.74,0
cockburn harbour,,,,,,,,
camden,US,39.94,-75.12,1541265300,59,50,14.99,40
foki,RU,56.69,54.35,1541267925,35.53,98,8.86,92
woodward,US,36.43,-99.39,1541265300,60.08,47,18.34,40
verkh-chebula,RU,56.03,87.61,1541267925,21.62,81,8.93,76
hasanabad,IR,35.37,51.24,1541264400,55.4,32,9.17,0
pevek,RU,69.7,170.27,1541267504,10.37,100,7.74,76
prince rupert,CA,54.32,-130.32,1541264400,50,93,10.29,90
sakakah,,,,,,,,
grand gaube,MU,-20.01,57.66,1541264400,75.2,78,1.12,20
baldone,LV,56.74,24.39,1541265600,44.6,81,4.7,20
hualmay,PE,-11.1,-77.61,1541267571,76.66,51,5.23,0
urumqi,,,,,,,,
katubao,PH,5.89,124.83,1541267926,73.96,100,4.38,12
gogrial,,,,,,,,
dalbandin,PK,28.9,64.41,1541267926,41.96,62,5.84,0
broome,GB,52.47,1.45,1541265600,51.8,76,11.41,0
micheweni,TZ,-4.97,39.83,1541267927,79.81,100,10.31,8
laguna,MX,27.52,-110.01,1541263560,82.4,34,3.36,5
coachella,US,33.68,-116.18,1541264160,82.04,21,4.7,1
planadas,CO,3.2,-75.65,1541264400,82.4,61,3.36,40
bara,NG,10.41,10.6,1541267928,83.05,42,4.38,20
hamilton,BM,32.3,-64.78,1541264100,78.8,54,14.99,20
flagstaff,US,35.2,-111.65,1541266500,62.6,36,4.7,1
rincon,US,32.3,-81.24,1541266500,65.48,42,4.7,1
bristol,GB,51.45,-2.6,1541265960,53.6,100,17.22,90
kozhva,RU,65.11,57.05,1541267928,28.51,95,6.13,92
pisco,PE,-13.71,-76.2,1541264400,71.6,30,11.41,0
umm lajj,SA,25.02,37.27,1541267544,66.85,100,2.26,92
dillon,US,45.22,-112.64,1541267580,42.98,52,14.99,40
billings,US,45.79,-108.5,1541267580,37.94,75,3.36,75
tezu,IN,27.93,96.16,1541267929,58.79,70,1.54,92
badami,IN,15.92,75.68,1541267929,72.47,84,3.38,64
kihei,US,20.76,-156.45,1541267100,77,65,13.87,40
vuktyl,RU,63.86,57.31,1541267930,30.98,93,4.9,92
sao sepe,BR,-30.16,-53.57,1541264400,73.4,78,2.24,90
darhan,MN,49.49,105.92,1541267930,7.9,48,8.08,0
saint-georges,CA,46.12,-70.67,1541267500,46.96,95,4,92
manggar,ID,-2.88,108.27,1541267651,75.31,100,3.38,48
alice springs,AU,-23.7,133.88,1541266200,84.2,37,5.82,90
abadan,IR,30.36,48.26,1541264400,75.2,47,13.87,75
north bend,US,43.41,-124.22,1541266080,51.8,87,3.27,40
navoloki,RU,57.47,41.96,1541267931,42.41,97,11.16,92
samusu,,,,,,,,
mehamn,NO,71.03,27.85,1541267378,33.28,95,3.56,92
krasnoarmeysk,RU,56.12,38.15,1541264400,46.4,100,11.18,90
sinnamary,GF,5.38,-52.96,1541267551,83.86,89,9.08,20
shingu,JP,33.72,135.99,1541267932,63.16,100,5.84,80
saint george,GR,39.45,22.34,1541265600,59,87,6.93,20
velsk,RU,61.07,42.1,1541267932,41.83,95,11.83,92
lolua,,,,,,,,
seoul,KR,37.57,126.98,1541266200,46.4,87,1.12,20
lazarev,RU,52.23,141.51,1541267932,30.98,100,16.31,80
asau,,,,,,,,
teguldet,RU,57.31,88.17,1541267933,20.09,65,8.25,56
westport,IE,53.8,-9.52,1541266200,50,93,18.34,75
dongsheng,CN,29.72,112.52,1541267933,50.42,84,2.48,8
praia da vitoria,PT,38.73,-27.07,1541264400,69.8,73,15.41,20
borazjan,IR,29.27,51.21,1541264400,75.2,53,4.23,0
san-pedro,CI,4.75,-6.64,1541267933,80.3,84,8.93,88
carutapera,BR,-1.2,-46.02,1541267410,89.03,59,12.95,24
mao,DO,19.55,-71.08,1541264400,86,62,12.75,40
mahebourg,MU,-20.41,57.7,1541264400,75.2,78,1.12,20
skagastrond,,,,,,,,
kailua,US,21.39,-157.74,1541264220,78.98,76,9.17,40
tabiauea,,,,,,,,
karabulak,KZ,44.91,78.49,1541267934,24.86,88,3.11,92
santiago del estero,AR,-27.8,-64.26,1541267827,86.87,56,14.85,56
kutiyana,IN,21.62,69.99,1541267935,80.48,46,8.59,0
yamada,JP,36.58,137.08,1541264400,48.2,87,3.36,20
saint anthony,US,43.97,-111.68,1541264160,39.02,66,10.29,1
havoysund,NO,71,24.66,1541265600,41,86,24.16,92
kudahuvadhoo,MV,2.67,72.89,1541267565,83.45,100,3.71,88
sistranda,NO,63.73,8.83,1541265600,41,86,25.28,75
lasa,CY,34.92,32.53,1541266200,73.4,55,6.93,0
sol-iletsk,RU,51.16,55,1541267936,29.99,79,5.12,68
ruteng,ID,-8.61,120.46,1541267936,71.03,87,3.49,0
turiacu,BR,-5.01,-63,1541267936,87.95,75,4,20
rize,TR,41.02,40.52,1541265600,60.8,87,5.82,40
piranhas,BR,-9.61,-37.76,1541267936,97.63,26,9.53,0
gaya,IN,24.8,85.01,1541264400,69.8,88,5.82,0
alamosa,US,37.47,-105.87,1541263920,41,52,17.22,1
clonakilty,IE,51.62,-8.87,1541266200,53.6,93,16.11,75
nishihara,JP,35.74,139.53,1541266200,59,77,5.82,75
saint-joseph,FR,43.56,6.97,1541266200,69.8,77,5.82,0
najran,SA,17.54,44.22,1541264400,71.6,40,6.93,0
mutsamudu,,,,,,,,
batagay-alyta,RU,67.8,130.41,1541267716,-26.71,0,2.82,12
havre-saint-pierre,CA,50.23,-63.6,1541267160,37.4,86,19.46,90
shahpura,IN,25.63,74.93,1541267938,69.01,49,2.82,20
bucerias,MX,20.76,-105.33,1541263380,80.6,83,7.07,75
lumberton,US,30.27,-94.2,1541265300,75.74,47,16.11,40
kuryk,KZ,43.18,51.68,1541267938,43.49,86,14.34,0
gazli,UZ,40.13,63.45,1541267938,26.98,73,4,0
cockburn town,TC,21.46,-71.14,1541267564,82.46,98,20.67,0
gayny,RU,60.3,54.33,1541267939,34.31,96,10.6,92
samarai,PG,-10.62,150.67,1541267939,77.38,100,11.88,88
inta,RU,66.04,60.13,1541267939,24.86,82,2.77,88
turayf,SA,31.68,38.65,1541264400,51.8,100,18.34,90
port hardy,CA,50.7,-127.42,1541264400,48.2,93,14.99,90
palu,ID,-0.9,119.87,1541267882,66.08,97,1.77,88
souillac,FR,45.6,-0.6,1541266200,50,76,4.7,0
zhongshu,CN,24.52,103.77,1541267940,47.81,88,6.62,0
cidreira,BR,-30.17,-50.22,1541267490,71.8,93,10.04,88
inirida,CO,3.87,-67.92,1541267940,83.45,73,1.36,80
sfantu gheorghe,RO,44.65,26.83,1541266200,53.6,87,3.36,0
ternate,PH,14.29,120.72,1541264400,82.4,88,5.82,20
tateyama,JP,36.66,137.31,1541267941,30.8,95,1.99,0
jiwani,PK,25.05,61.74,1541267941,71.21,49,16.08,0
igra,RU,57.55,53.1,1541267941,35.57,98,9.6,88
los llanos de aridane,ES,28.66,-17.92,1541266200,71.6,64,17.22,75
saint-louis,CH,47.59,7.56,1541266200,51.8,87,3.36,90
sobolevo,RU,54.43,31.9,1541267942,49.16,98,7.85,92
imbituba,BR,-28.24,-48.67,1541264400,68,100,3.36,75
buckeye,US,33.37,-112.58,1541266500,69.98,42,4.56,1
elizabeth city,US,36.3,-76.22,1541267640,64.94,38,18.34,1
magaria,NE,13,8.91,1541267942,79.85,57,2.89,8
aitape,PG,-3.15,142.36,1541267943,78.73,100,6.35,56
bardoli,IN,21.12,73.11,1541267943,81.47,65,6.58,8
gwanda,ZW,-20.94,29,1541267943,66.35,64,14.56,0
apud,PH,13.14,123.29,1541267943,81.38,100,8.63,64
piacabucu,BR,-10.41,-36.43,1541267534,88.63,47,14.85,0
chingola,ZM,-12.55,27.86,1541267943,77.15,40,6.91,68
arman,RU,59.7,150.17,1541264400,24.8,100,8.95,90
privolzhye,RU,52.86,48.6,1541267944,37.01,86,12.95,56
sentyabrskiy,,,,,,,,
coos bay,US,43.37,-124.22,1541266080,51.8,87,3.27,40
kapustin yar,RU,48.58,45.77,1541267944,35.08,80,9.82,0
makakilo city,US,21.35,-158.09,1541264220,78.98,84,5.82,1
attawapiskat,,,,,,,,
bambanglipuro,ID,-7.95,110.28,1541267496,71.84,100,2.59,76
pahrump,US,36.21,-115.98,1541264280,73.04,23,11.41,1
pacific grove,US,36.62,-121.92,1541266500,62.6,55,4.05,1
bur gabo,,,,,,,,
hervey bay,AU,-25.3,152.85,1541267945,73.64,97,10.42,0
vrangel,RU,42.73,133.08,1541267945,51.77,100,8.93,24
sibolga,ID,1.74,98.78,1541267532,69.5,100,1.59,68
bocaranga,,,,,,,,
mahadday weyne,,,,,,,,
neiafu,TO,-18.65,-173.98,1541264400,71.6,60,6.93,40
glinka,RU,54.64,32.87,1541267946,47.86,97,9.04,92
huoqiu,CN,32.34,116.27,1541267946,52.04,90,7.29,0
stepnyak,KZ,52.83,70.79,1541267946,26.35,90,4.38,80
warqla,,,,,,,,
cedar city,US,37.68,-113.06,1541263980,51.08,38,13.87,1
kozhevnikovo,RU,56.26,83.98,1541267947,14.24,91,7.36,0
basoko,CD,1.23,23.61,1541267947,75.71,93,3.71,12
dong hoi,VN,17.48,106.6,1541267947,76.07,100,3.89,92
huangyan,,,,,,,,
high level,CA,58.52,-117.13,1541264400,21.2,85,4.7,90
yanan,,,,,,,,
mandalgovi,MN,45.76,106.27,1541267948,13.25,71,5.39,0
palauig,PH,15.44,119.9,1541267948,76.3,100,3.38,0
taltal,CL,-25.41,-70.49,1541267574,68.24,77,3.6,0
guarapari,BR,-20.67,-40.5,1541264400,87.8,58,13.87,20
shebalino,RU,51.29,85.68,1541267948,15.95,68,6.58,56
pochutla,MX,15.74,-96.47,1541263860,87.8,62,4.9,20
quepos,CR,9.43,-84.16,1541264400,80.6,51,8.05,20
tanete,ID,-3.94,119.78,1541267949,75.53,92,3.38,76
xucheng,CN,33,118.51,1541267949,58.48,95,6.35,0
sangar,RU,63.92,127.47,1541267949,2.68,66,6.02,12
virginia beach,US,36.85,-75.98,1541267640,64.94,38,18.34,1
taitung,TW,22.76,121.15,1541267576,73.19,100,4.83,44
nantucket,US,41.28,-70.1,1541267400,62.06,87,28.86,90
dingtao,CN,35.07,115.56,1541267950,50.11,94,7.14,0
takoradi,GH,4.89,-1.75,1541267950,79.94,100,7.02,88
severodvinsk,RU,64.56,39.82,1541264400,41,100,6.71,90
fort nelson,CA,58.81,-122.69,1541264400,6.8,84,2.24,75
mareeba,AU,-16.99,145.42,1541266200,75.2,83,6.93,40
maneadero,,,,,,,,
port-cartier,CA,50.03,-66.88,1541264400,35.6,93,9.17,90
liverpool,GB,53.41,-2.98,1541265600,55.4,76,18.34,75
masterton,NZ,-40.95,175.66,1541267951,49.88,92,17.87,0
marsaxlokk,MT,35.84,14.54,1541265300,71.6,73,17.22,20
san felipe,CL,-32.75,-70.73,1541264400,77,31,11.41,0
bay roberts,CA,47.58,-53.28,1541265660,44.6,100,13.87,90
kirakira,SB,-10.46,161.92,1541267952,81.29,100,20.04,80
hirtshals,DK,57.59,9.96,1541267952,47.86,96,15.64,44
aras,YE,14.28,44.38,1541267502,48.98,52,1.88,0
sierra vista,US,31.55,-110.3,1541264280,66.2,28,10.29,1
katha,,,,,,,,
zhigansk,RU,66.77,123.37,1541267553,2.86,85,6.73,76
awbari,LY,26.59,12.77,1541267953,69.41,26,2.26,0
yialos,,,,,,,,
eyl,SO,7.98,49.82,1541267953,78.05,96,9.86,24
milkovo,BG,41.53,24.68,1541266200,57.2,93,1.54,20
kuching,MY,1.56,110.34,1541266200,78.8,94,4.7,75
half moon bay,US,37.46,-122.43,1541267220,68,87,12.75,1
araguacu,,,,,,,,
norman wells,CA,65.28,-126.83,1541266800,1.4,84,4.7,75
kumbo,CM,6.21,10.69,1541267954,67.16,89,2.48,88
pathein,MM,16.78,94.73,1541267954,77.15,83,6.35,24
san cristobal,EC,-0.39,-78.55,1541264400,66.2,48,5.82,40
bose,IT,45.46,8.01,1541265600,57.2,93,2.24,75
mackay,CA,53.65,-115.58,1541264400,32,100,5.82,75
lodja,CD,-3.52,23.6,1541267955,68.42,100,3.04,92
juneau,US,58.3,-134.42,1541264160,33.08,95,3.33,90
labutta,,,,,,,,
hirara,JP,24.8,125.28,1541267723,78.05,99,10.54,8
bilibino,RU,68.06,166.44,1541267578,-1.15,65,2.48,48
araouane,ML,18.9,-3.53,1541267489,82.19,21,4.56,0
tanda,IN,31.67,75.63,1541267955,57.89,90,3.56,88
matara,PE,-13.74,-72.9,1541264400,55.4,50,5.82,75
montelibano,CO,7.98,-75.42,1541267956,78.59,92,4.12,100
taseyevo,RU,57.22,94.9,1541267956,28.19,70,10.6,68
kampot,KH,10.62,104.18,1541267956,73.37,97,4.56,92
muzquiz,,,,,,,,
svetlaya,RU,46.54,138.33,1541267957,51.01,91,9.93,0
abu kamal,SY,34.45,40.92,1541267957,62.48,65,10.16,92
campbell river,CA,50.02,-125.24,1541264400,51.8,100,4.7,90
ystad,SE,55.43,13.82,1541265600,41,93,5.82,0
vinh,VN,18.67,105.69,1541267957,64.15,90,3.89,0
azimur,,,,,,,,
gumusyaka,,,,,,,,
walvis bay,NA,-22.95,14.51,1541267556,61.58,100,3.04,32
cabo rojo,PR,18.09,-67.15,1541267400,84.2,93,19.46,40
la ronge,CA,55.1,-105.3,1541264400,28.4,86,14.99,90
grindavik,IS,63.84,-22.43,1541264400,32,100,29.97,40
sydney mines,CA,46.24,-60.22,1541264400,64.4,88,20.8,90
langsa,ID,4.47,97.97,1541267751,71.98,100,1.99,88
naushki,RU,50.39,106.11,1541267959,9.65,71,4.72,0
artyk,,,,,,,,
manbij,SY,36.53,37.96,1541265600,62.6,42,8.05,75
banda aceh,ID,5.56,95.32,1541267510,76.3,98,4.12,76
rawah,,,,,,,,
davydovo,RU,55.61,38.86,1541264400,46.4,87,8.95,90
goias,BR,-15.93,-50.14,1541267959,80.08,75,4.12,80
harrisonville,US,38.65,-94.35,1541267580,55.94,57,13.87,1
glace bay,CA,46.2,-59.96,1541264400,64.4,88,20.8,90
vieques,PR,18.43,-65.83,1541267100,84.02,78,13.87,75
barawe,,,,,,,,
kisangani,CD,0.52,25.21,1541267960,74.41,96,2.71,32
